{"features":[{"id":"Bourbon n\u0027 Toulouse","properties":{"Type":"Restaurant","Note":"~","Vegan":"~","City":"Lexington","Name":"Bourbon n\u0027 Toulouse","State":"KY","geo_accuracy":"restaurant","Add":"829 Euclid Ave","longitude":-84.4902826814,"latitude":38.0293925041,"Zip":40502,"geo_latitude":38.0297939,"geo_longitude":-84.4905078298609},"type":"Feature","geometry":{"type":"Point","coordinates":[-84.4905078298609,38.0297939]}},{"id":"Sav\u0027s Grill","properties":{"Type":"Restaurant","Note":"~","Vegan":"~","City":"Lexington","Name":"Sav\u0027s Grill","State":"KY","geo_accuracy":"restaurant","Add":"304 S Limestone","longitude":-84.5013655477,"latitude":38.0430721206,"Zip":40508,"geo_latitude":38.0430888,"geo_longitude":-84.5014128194252},"type":"Feature","geometry":{"type":"Point","coordinates":[-84.5014128194252,38.0430888]}},{"id":"Coffea","properties":{"Type":"Coffee","Note":"~","Vegan":"~","City":"Lexington","Name":"Coffea","State":"KY","geo_accuracy":"cafe","Add":"385 Rose St","longitude":-84.4994918808,"latitude":38.0381945941,"Zip":40508,"geo_latitude":38.0381823,"geo_longitude":-84.4996103},"type":"Feature","geometry":{"type":"Point","coordinates":[-84.4996103,38.0381823]}},{"id":"Stella\u0027s Kentucky Deli","properties":{"Type":"Restaurant","Note":"~","Vegan":"~","City":"Lexington","Name":"Stella\u0027s Kentucky Deli","State":"KY","geo_accuracy":"restaurant","Add":"143 Jefferson St","longitude":-84.5019636647,"latitude":38.052792898,"Zip":40508,"geo_latitude":38.05281455,"geo_longitude":-84.5019615300544},"type":"Feature","geometry":{"type":"Point","coordinates":[-84.5019615300544,38.05281455]}},{"id":"West Sixth Brewery","properties":{"Type":"Bar","Note":"~","Vegan":"~","City":"Lexington","Name":"West Sixth Brewery","State":"KY","geo_accuracy":"pub","Add":"501 W 6th St","longitude":-84.4917566057,"latitude":38.0598217992,"Zip":40508,"geo_latitude":38.0594244,"geo_longitude":-84.4919265},"type":"Feature","geometry":{"type":"Point","coordinates":[-84.4919265,38.0594244]}},{"id":"Mellow Mushroom","properties":{"Type":"Restaurant","Note":"~","Vegan":"~","City":"Lexington","Name":"Mellow Mushroom","State":"KY","geo_accuracy":"house","Add":"503 S Upper St","longitude":-84.5036391962,"latitude":38.0435305973,"Zip":40508,"geo_latitude":38.039246,"geo_longitude":-84.5067385},"type":"Feature","geometry":{"type":"Point","coordinates":[-84.5067385,38.039246]}},{"id":"Lynagh\u0027s Irish Pub","properties":{"Type":"Bar","Note":"~","Vegan":"~","City":"Lexington","Name":"Lynagh\u0027s Irish Pub","State":"KY","geo_accuracy":"house","Add":"384 Woodland Ave","longitude":-84.4956730903,"latitude":38.0347471876,"Zip":40508,"geo_latitude":38.0347238319635,"geo_longitude":-84.4955698635073},"type":"Feature","geometry":{"type":"Point","coordinates":[-84.4955698635073,38.0347238319635]}},{"id":"Hyatt Regency Lexington","properties":{"Type":"Lodging","Note":"~","Vegan":"~","City":"Lexington","Name":"Hyatt Regency Lexington","State":"KY","geo_accuracy":"house","Add":"401 W High St","longitude":-84.501943713,"latitude":38.0481103533,"Zip":40507,"geo_latitude":38.047848,"geo_longitude":-84.501684},"type":"Feature","geometry":{"type":"Point","coordinates":[-84.501684,38.047848]}},{"id":"Holiday Inn Express Hotel \u0026 Suites","properties":{"Type":"Lodging","Note":"~","Vegan":"~","City":"Lexington","Name":"Holiday Inn Express Hotel \u0026 Suites","State":"KY","geo_accuracy":"house","Add":"1000 Export St","longitude":-84.5135370972,"latitude":38.036076105,"Zip":40504,"geo_latitude":38.036322,"geo_longitude":-84.514656},"type":"Feature","geometry":{"type":"Point","coordinates":[-84.514656,38.036322]}},{"id":"Blue Grass Airport","properties":{"Type":"Other","Note":"~","Vegan":"~","City":"Lexington","Name":"Blue Grass Airport","State":"KY","geo_accuracy":"residential","Add":"4000 Terminal Dr","longitude":-84.5981793759,"latitude":38.0376998931,"Zip":40510,"geo_latitude":38.038983,"geo_longitude":-84.598352},"type":"Feature","geometry":{"type":"Point","coordinates":[-84.598352,38.038983]}},{"id":"Great Bagel","properties":{"Type":"Restaurant","Note":"~","Vegan":"~","City":"Lexington","Name":"Great Bagel","State":"KY","geo_accuracy":"house","Add":"396 Woodland Ave","longitude":-84.495947892,"latitude":38.0345452105,"Zip":40508,"geo_latitude":38.0345465474234,"geo_longitude":-84.4958142662153},"type":"Feature","geometry":{"type":"Point","coordinates":[-84.4958142662153,38.0345465474234]}},{"id":"Country Boy Brewing","properties":{"Type":"Bar","Note":"~","Vegan":"~","City":"Lexington","Name":"Country Boy Brewing","State":"KY","geo_accuracy":"brewery","Add":"436 Chair Ave","longitude":-84.5091859269,"latitude":38.0439128222,"Zip":40508,"geo_latitude":38.0439379,"geo_longitude":-84.5092837},"type":"Feature","geometry":{"type":"Point","coordinates":[-84.5092837,38.0439379]}},{"id":"Alfalfa Restaurant","properties":{"Type":"Restaurant","Note":"~","Vegan":"~","City":"Lexington","Name":"Alfalfa Restaurant","State":"KY","geo_accuracy":"house","Add":"141 E Main St","longitude":-84.4962206251,"latitude":38.0456287528,"Zip":40507,"geo_latitude":38.0457487857143,"geo_longitude":-84.4964831632653},"type":"Feature","geometry":{"type":"Point","coordinates":[-84.4964831632653,38.0457487857143]}},{"id":"Oasis Mediterranean Restaurant","properties":{"Type":"Restaurant","Note":"~","Vegan":"~","City":"Lexington","Name":"Oasis Mediterranean Restaurant","State":"KY","geo_accuracy":"house","Add":"868 E High St","longitude":-84.49012537,"latitude":38.0290581223,"Zip":40502,"geo_latitude":38.029183,"geo_longitude":-84.4901763333333},"type":"Feature","geometry":{"type":"Point","coordinates":[-84.4901763333333,38.029183]}},{"id":"Chevy Chase Inn","properties":{"Type":"Bar","Note":"~","Vegan":"~","City":"Lexington","Name":"Chevy Chase Inn","State":"KY","geo_accuracy":"bar","Add":"833 Euclid Ave","longitude":-84.4905208007,"latitude":38.0297804958,"Zip":40502,"geo_latitude":38.0297222,"geo_longitude":-84.4904042383947},"type":"Feature","geometry":{"type":"Point","coordinates":[-84.4904042383947,38.0297222]}},{"id":"Sarah Mediterranean","properties":{"Type":"Restaurant","Note":"~","Vegan":"~","City":"Lexington","Name":"Sarah Mediterranean","State":"KY","geo_accuracy":"bar","Add":"319 S Limestone","longitude":-84.5019604308,"latitude":38.0430945389,"Zip":40508,"geo_latitude":38.0430841,"geo_longitude":-84.501963},"type":"Feature","geometry":{"type":"Point","coordinates":[-84.501963,38.0430841]}},{"id":"Grey Goose","properties":{"Type":"Bar","Note":"~","Vegan":"~","City":"Lexington","Name":"Grey Goose","State":"KY","geo_accuracy":"house","Add":"170 Jefferson St","longitude":-84.5008649232,"latitude":38.0529533348,"Zip":40508,"geo_latitude":38.053228,"geo_longitude":-84.500919},"type":"Feature","geometry":{"type":"Point","coordinates":[-84.500919,38.053228]}},{"id":"Green Lantern","properties":{"Type":"Bar","Note":"~","Vegan":"~","City":"Lexington","Name":"Green Lantern","State":"KY","geo_accuracy":"house","Add":"497 W 3rd St","longitude":-84.4985719039,"latitude":38.0549415608,"Zip":40508,"geo_latitude":38.0549309230769,"geo_longitude":-84.4984335384615},"type":"Feature","geometry":{"type":"Point","coordinates":[-84.4984335384615,38.0549309230769]}},{"id":"Village Host Pizza","properties":{"Type":"Restaurant","Note":"~","Vegan":"~","City":"Lexington","Name":"Village Host Pizza","State":"KY","geo_accuracy":"house","Add":"431 Old Vine St","longitude":-84.4917939753,"latitude":38.0400385587,"Zip":40507,"geo_latitude":38.03921,"geo_longitude":-84.490901},"type":"Feature","geometry":{"type":"Point","coordinates":[-84.490901,38.03921]}},{"id":"T Bar","properties":{"Type":"Bar","Note":"~","Vegan":"~","City":"Lexington","Name":"T Bar","State":"KY","geo_accuracy":"bar","Add":"500 Euclid Ave","longitude":-84.4960467688,"latitude":38.0344796856,"Zip":40508,"geo_latitude":38.0342667,"geo_longitude":-84.4960786669933},"type":"Feature","geometry":{"type":"Point","coordinates":[-84.4960786669933,38.0342667]}},{"id":"King Tut","properties":{"Type":"Restaurant","Note":"~","Vegan":"~","City":"Lexington","Name":"King Tut","State":"KY","geo_accuracy":"house","Add":"341 S Limestone","longitude":-84.5025798739,"latitude":38.0426924338,"Zip":40508,"geo_latitude":38.04276525,"geo_longitude":-84.5026248924939},"type":"Feature","geometry":{"type":"Point","coordinates":[-84.5026248924939,38.04276525]}},{"id":"Joe Bologna\u0027s","properties":{"Type":"Restaurant","Note":"~","Vegan":"~","City":"Lexington","Name":"Joe Bologna\u0027s","State":"KY","geo_accuracy":"house","Add":"120 W Maxwell St","longitude":-84.5022939607,"latitude":38.0437267098,"Zip":40508,"geo_latitude":38.043844679419,"geo_longitude":-84.5019268951241},"type":"Feature","geometry":{"type":"Point","coordinates":[-84.5019268951241,38.043844679419]}},{"id":"Bangkok House","properties":{"Type":"Restaurant","Note":"~","Vegan":"~","City":"Lexington","Name":"Bangkok House","State":"KY","geo_accuracy":"house","Add":"275 Avenue of Champions","longitude":-84.5008353423,"latitude":38.0387860021,"Zip":40508,"geo_latitude":38.0383548825969,"geo_longitude":-84.5002387589431},"type":"Feature","geometry":{"type":"Point","coordinates":[-84.5002387589431,38.0383548825969]}},{"id":"Ramsey\u0027s","properties":{"Type":"Restaurant","Note":"~","Vegan":"~","City":"Lexington","Name":"Ramsey\u0027s","State":"KY","geo_accuracy":"house","Add":"496 E High St","longitude":-84.4929871787,"latitude":38.0368112777,"Zip":40507,"geo_latitude":38.0368692,"geo_longitude":-84.493011},"type":"Feature","geometry":{"type":"Point","coordinates":[-84.493011,38.0368692]}},{"id":"Gaine\u0027s Center","properties":{"Type":"Conference Location","Note":"~","Vegan":"~","City":"Lexington","Name":"Gaine\u0027s Center","State":"KY","geo_accuracy":"house","Add":"226 E Maxwell St","longitude":-84.4983684737,"latitude":38.0408205573,"Zip":40506,"geo_latitude":38.040859,"geo_longitude":-84.498531},"type":"Feature","geometry":{"type":"Point","coordinates":[-84.498531,38.040859]}}],"type":"FeatureCollection"}
