{
"type": "FeatureCollection",
"crs": { "type": "name", "properties": { "name": "urn:ogc:def:crs:OGC:1.3:CRS84" } },
"features": [
{ "type": "Feature", "properties": { "Name": "Al's Bar", "Add": "601 N Limestone St", "City": "Lexington", "State": "KY", "Zip": "40508", "Type": "Bar", "latitude": "38.0540372095", "longitude": "-84.4863908142" }, "geometry": { "type": "Point", "coordinates": [ -84.486390814200007, 38.054037209500002 ] } },
{ "type": "Feature", "properties": { "Name": "West Sixth Brewery", "Add": "501 W 6th St", "City": "Lexington", "State": "KY", "Zip": "40508", "Type": "Bar", "latitude": "38.0598217992", "longitude": "-84.4917566057" }, "geometry": { "type": "Point", "coordinates": [ -84.491756605700004, 38.059821799199995 ] } },
{ "type": "Feature", "properties": { "Name": "The Beer Trappe", "Add": "811 E Euclid Ave", "City": "Lexington", "State": "KY", "Zip": "40502", "Type": "Bar", "latitude": "38.0301511325", "longitude": "-84.4907633308" }, "geometry": { "type": "Point", "coordinates": [ -84.490763330799993, 38.030151132500002 ] } },
{ "type": "Feature", "properties": { "Name": "Side Bar Grill", "Add": "147 N Limestone St", "City": "Lexington", "State": "KY", "Zip": "40507", "Type": "Bar", "latitude": "38.0472217767", "longitude": "-84.4960186374" }, "geometry": { "type": "Point", "coordinates": [ -84.496018637399999, 38.047221776699999 ] } },
{ "type": "Feature", "properties": { "Name": "Lynagh's Irish Pub", "Add": "384 Woodland Ave", "City": "Lexington", "State": "KY", "Zip": "40508", "Type": "Bar", "latitude": "38.0347471876", "longitude": "-84.4956730903" }, "geometry": { "type": "Point", "coordinates": [ -84.495673090300002, 38.034747187599997 ] } },
{ "type": "Feature", "properties": { "Name": "Country Boy Brewing", "Add": "436 Chair Ave", "City": "Lexington", "State": "KY", "Zip": "40508", "Type": "Bar", "latitude": "38.0439128222", "longitude": "-84.5091859269" }, "geometry": { "type": "Point", "coordinates": [ -84.509185926900003, 38.043912822199999 ] } },
{ "type": "Feature", "properties": { "Name": "Chevy Chase Inn", "Add": "833 Euclid Ave", "City": "Lexington", "State": "KY", "Zip": "40502", "Type": "Bar", "latitude": "38.0297804958", "longitude": "-84.4905208007" }, "geometry": { "type": "Point", "coordinates": [ -84.490520800699997, 38.029780495799997 ] } },
{ "type": "Feature", "properties": { "Name": "Soundbar", "Add": "208 S Limestone St", "City": "Lexington", "State": "KY", "Zip": "40508", "Type": "Bar", "latitude": "38.0447983537", "longitude": "-84.4988914554" }, "geometry": { "type": "Point", "coordinates": [ -84.498891455399999, 38.044798353700003 ] } },
{ "type": "Feature", "properties": { "Name": "Grey Goose", "Add": "170 Jefferson St", "City": "Lexington", "State": "KY", "Zip": "40508", "Type": "Bar", "latitude": "38.0529533348", "longitude": "-84.5008649232" }, "geometry": { "type": "Point", "coordinates": [ -84.500864923199998, 38.052953334800002 ] } },
{ "type": "Feature", "properties": { "Name": "Green Lantern", "Add": "497 W 3rd St", "City": "Lexington", "State": "KY", "Zip": "40508", "Type": "Bar", "latitude": "38.0549415608", "longitude": "-84.4985719039" }, "geometry": { "type": "Point", "coordinates": [ -84.4985719039, 38.054941560800003 ] } },
{ "type": "Feature", "properties": { "Name": "North Lime Coffee & Donuts", "Add": "575 N Limestone St", "City": "Lexington", "State": "KY", "Zip": "40508", "Type": "Coffee", "latitude": "38.0538340897", "longitude": "-84.4864823223" }, "geometry": { "type": "Point", "coordinates": [ -84.486482322300006, 38.053834089699997 ] } },
{ "type": "Feature", "properties": { "Name": "Coffea", "Add": "385 Rose St", "City": "Lexington", "State": "KY", "Zip": "40508", "Type": "Coffee", "latitude": "38.0381945941", "longitude": "-84.4994918808" }, "geometry": { "type": "Point", "coordinates": [ -84.499491880799994, 38.038194594099991 ] } },
{ "type": "Feature", "properties": { "Name": "Third Street Stuff & Coffee", "Add": "257 N Limestone St", "City": "Lexington", "State": "KY", "Zip": "40508", "Type": "Coffee", "latitude": "38.0441218355", "longitude": "-84.5004673518" }, "geometry": { "type": "Point", "coordinates": [ -84.500467351799998, 38.0441218355 ] } },
{ "type": "Feature", "properties": { "Name": "Student Center", "Add": "404 Administrative Dr", "City": "Lexington", "State": "KY", "Zip": "40506", "Type": "Conference Location", "latitude": "38.0389273229", "longitude": "-84.5065237746" }, "geometry": { "type": "Point", "coordinates": [ -84.506523774599984, 38.038927322899994 ] } },
{ "type": "Feature", "properties": { "Name": "Gaines Center", "Add": "226 E Maxwell St", "City": "Lexington", "State": "KY", "Zip": "40506", "Type": "Conference Location", "latitude": "38.0408205573", "longitude": "-84.4983684737" }, "geometry": { "type": "Point", "coordinates": [ -84.498368473699998, 38.040820557300002 ] } },
{ "type": "Feature", "properties": { "Name": "Memorial Hall", "Add": "", "City": "Lexington", "State": "KY", "Zip": "40506", "Type": "Conference Location", "latitude": "", "longitude": "" }, "geometry": { "type": "Point", "coordinates": [ 0.0, 0.0 ] } },
{ "type": "Feature", "properties": { "Name": "Memorial Colliseum Parking", "Add": "", "City": "", "State": "", "Zip": "", "Type": "Conference Location", "latitude": "38.04007", "longitude": "-84.499205" }, "geometry": { "type": "Point", "coordinates": [ -84.499205, 38.04007 ] } },
{ "type": "Feature", "properties": { "Name": "Fine Arts Library", "Add": "", "City": "Lexington", "State": "KY", "Zip": "40506", "Type": "", "latitude": "", "longitude": "" }, "geometry": { "type": "Point", "coordinates": [ 0.0, 0.0 ] } },
{ "type": "Feature", "properties": { "Name": "Whitehall Classroom Building", "Add": "", "City": "Lexington", "State": "KY", "Zip": "40506", "Type": "", "latitude": "", "longitude": "" }, "geometry": { "type": "Point", "coordinates": [ 0.0, 0.0 ] } },
{ "type": "Feature", "properties": { "Name": "Student Center Parking", "Add": "", "City": "", "State": "", "Zip": "", "Type": "Conference Location", "latitude": "38.039113", "longitude": "-84.502316" }, "geometry": { "type": "Point", "coordinates": [ -84.502316, 38.039113 ] } },
{ "type": "Feature", "properties": { "Name": "Parking Structure #5", "Add": "", "City": "", "State": "", "Zip": "", "Type": "Conference Location", "latitude": "", "longitude": "" }, "geometry": { "type": "Point", "coordinates": [ 0.0, 0.0 ] } },
{ "type": "Feature", "properties": { "Name": "University Inn", "Add": "1229 S Limestone St", "City": "Lexington", "State": "KY", "Zip": "40503", "Type": "Lodging", "latitude": "38.0285726984", "longitude": "-84.5109456256" }, "geometry": { "type": "Point", "coordinates": [ -84.510945625600002, 38.028572698399991 ] } },
{ "type": "Feature", "properties": { "Name": "Hyatt Regency Lexington", "Add": "401 W High St", "City": "Lexington", "State": "KY", "Zip": "40507", "Type": "Lodging", "latitude": "38.0481103533", "longitude": "-84.501943713" }, "geometry": { "type": "Point", "coordinates": [ -84.501943712999989, 38.048110353299997 ] } },
{ "type": "Feature", "properties": { "Name": "Holiday Inn Express Hotel & Suites", "Add": "1000 Export St", "City": "Lexington", "State": "KY", "Zip": "40504", "Type": "Lodging", "latitude": "38.036076105", "longitude": "-84.5135370972" }, "geometry": { "type": "Point", "coordinates": [ -84.5135370972, 38.036076105 ] } },
{ "type": "Feature", "properties": { "Name": "Spring Hill Suites", "Add": "863 S Broadway Rd", "City": "Lexington", "State": "KY", "Zip": "40504", "Type": "Lodging", "latitude": "38.0397523742", "longitude": "-84.5141483498" }, "geometry": { "type": "Point", "coordinates": [ -84.514148349799996, 38.039752374199999 ] } },
{ "type": "Feature", "properties": { "Name": "Gratz Park Inn", "Add": "120 W 2nd St", "City": "Lexington", "State": "KY", "Zip": "40507", "Type": "Lodging", "latitude": "38.0483797617", "longitude": "-84.4950894701" }, "geometry": { "type": "Point", "coordinates": [ -84.495089470099998, 38.048379761699998 ] } },
{ "type": "Feature", "properties": { "Name": "Blue Grass Airport", "Add": "4000 Terminal Dr", "City": "Lexington", "State": "KY", "Zip": "40510", "Type": "Other", "latitude": "38.0376998931", "longitude": "-84.5981793759" }, "geometry": { "type": "Point", "coordinates": [ -84.598179375900003, 38.037699893099997 ] } },
{ "type": "Feature", "properties": { "Name": "Bourbon n' Toulouse", "Add": "829 Euclid Ave", "City": "Lexington", "State": "KY", "Zip": "40502", "Type": "Restaurant", "latitude": "38.0293925041", "longitude": "-84.4902826814" }, "geometry": { "type": "Point", "coordinates": [ -84.490282681400004, 38.029392504100002 ] } },
{ "type": "Feature", "properties": { "Name": "Sav's Grill", "Add": "304 S Limestone", "City": "Lexington", "State": "KY", "Zip": "40508", "Type": "Restaurant", "latitude": "38.0430721206", "longitude": "-84.5013655477" }, "geometry": { "type": "Point", "coordinates": [ -84.501365547700004, 38.043072120600002 ] } },
{ "type": "Feature", "properties": { "Name": "Tolly-Ho", "Add": "606 S Broadway Rd", "City": "Lexington", "State": "KY", "Zip": "40508", "Type": "Restaurant", "latitude": "38.0436766771", "longitude": "-84.5074022892" }, "geometry": { "type": "Point", "coordinates": [ -84.507402289200002, 38.043676677100002 ] } },
{ "type": "Feature", "properties": { "Name": "Stella's Kentucky Deli", "Add": "143 Jefferson St", "City": "Lexington", "State": "KY", "Zip": "40508", "Type": "Restaurant", "latitude": "38.052792898", "longitude": "-84.5019636647" }, "geometry": { "type": "Point", "coordinates": [ -84.501963664699986, 38.052792898 ] } },
{ "type": "Feature", "properties": { "Name": "The Village Idiot", "Add": "307 W Short St", "City": "Lexington", "State": "KY", "Zip": "40507", "Type": "Restaurant", "latitude": "38.04885577", "longitude": "-84.4982753478" }, "geometry": { "type": "Point", "coordinates": [ -84.498275347800003, 38.04885577 ] } },
{ "type": "Feature", "properties": { "Name": "The Local Taco", "Add": "315 South Limestone St", "City": "Lexington", "State": "KY", "Zip": "40508", "Type": "Restaurant", "latitude": "38.0432513395", "longitude": "-84.5019708694" }, "geometry": { "type": "Point", "coordinates": [ -84.501970869399997, 38.043251339500003 ] } },
{ "type": "Feature", "properties": { "Name": "Mellow Mushroom", "Add": "503 S Upper St", "City": "Lexington", "State": "KY", "Zip": "40508", "Type": "Restaurant", "latitude": "38.0435305973", "longitude": "-84.5036391962" }, "geometry": { "type": "Point", "coordinates": [ -84.503639196199998, 38.043530597299998 ] } },
{ "type": "Feature", "properties": { "Name": "Great Bagel", "Add": "396 Woodland Ave", "City": "Lexington", "State": "KY", "Zip": "40508", "Type": "Restaurant", "latitude": "38.0345452105", "longitude": "-84.495947892" }, "geometry": { "type": "Point", "coordinates": [ -84.495947892, 38.034545210499999 ] } },
{ "type": "Feature", "properties": { "Name": "Sam's Hot Dog Stand", "Add": "109 N Limestone St", "City": "Lexington", "State": "KY", "Zip": "40507", "Type": "Restaurant", "latitude": "38.0466268602", "longitude": "-84.4968532398" }, "geometry": { "type": "Point", "coordinates": [ -84.496853239799989, 38.0466268602 ] } },
{ "type": "Feature", "properties": { "Name": "Alfalfa Restaurant", "Add": "141 E Main St", "City": "Lexington", "State": "KY", "Zip": "40507", "Type": "Restaurant", "latitude": "38.0456287528", "longitude": "-84.4962206251" }, "geometry": { "type": "Point", "coordinates": [ -84.496220625099994, 38.045628752799999 ] } },
{ "type": "Feature", "properties": { "Name": "Oasis Mediterranean Restaurant", "Add": "868 E High St", "City": "Lexington", "State": "KY", "Zip": "40502", "Type": "Restaurant", "latitude": "38.0290581223", "longitude": "-84.49012537" }, "geometry": { "type": "Point", "coordinates": [ -84.49012537, 38.0290581223 ] } },
{ "type": "Feature", "properties": { "Name": "Sarah Mediterranean", "Add": "319 S Limestone", "City": "Lexington", "State": "KY", "Zip": "40508", "Type": "Restaurant", "latitude": "38.0430945389", "longitude": "-84.5019604308" }, "geometry": { "type": "Point", "coordinates": [ -84.501960430799997, 38.0430945389 ] } },
{ "type": "Feature", "properties": { "Name": "Doodles Restaurant", "Add": "262 N Limestone St", "City": "Lexington", "State": "KY", "Zip": "40507", "Type": "Restaurant", "latitude": "38.0491715915", "longitude": "-84.4926272722" }, "geometry": { "type": "Point", "coordinates": [ -84.492627272199996, 38.049171591499999 ] } },
{ "type": "Feature", "properties": { "Name": "Village Host Pizza", "Add": "431 Old Vine St", "City": "Lexington", "State": "KY", "Zip": "40507", "Type": "Restaurant", "latitude": "38.0400385587", "longitude": "-84.4917939753" }, "geometry": { "type": "Point", "coordinates": [ -84.491793975299998, 38.040038558699997 ] } },
{ "type": "Feature", "properties": { "Name": "Pazzo's", "Add": "385 S Limestone St", "City": "Lexington", "State": "KY", "Zip": "40508", "Type": "Restaurant", "latitude": "38.0418087139", "longitude": "-84.50359144" }, "geometry": { "type": "Point", "coordinates": [ -84.50359144, 38.041808713899997 ] } },
{ "type": "Feature", "properties": { "Name": "King Tut", "Add": "341 S Limestone", "City": "Lexington", "State": "KY", "Zip": "40508", "Type": "Restaurant", "latitude": "38.0426924338", "longitude": "-84.5025798739" }, "geometry": { "type": "Point", "coordinates": [ -84.502579873900004, 38.042692433799999 ] } },
{ "type": "Feature", "properties": { "Name": "Chipotle", "Add": "345 S Limestone St", "City": "Lexington", "State": "KY", "Zip": "40508", "Type": "Restaurant", "latitude": "38.0426480563", "longitude": "-84.5025718033" }, "geometry": { "type": "Point", "coordinates": [ -84.5025718033, 38.042648056300003 ] } },
{ "type": "Feature", "properties": { "Name": "Han Woo Ri", "Add": "371 S Limestone St", "City": "Lexington", "State": "KY", "Zip": "40508", "Type": "Restaurant", "latitude": "38.0422074152", "longitude": "-84.5034440442" }, "geometry": { "type": "Point", "coordinates": [ -84.503444044199995, 38.042207415199996 ] } },
{ "type": "Feature", "properties": { "Name": "Joe Bologna's", "Add": "120 W Maxwell St", "City": "Lexington", "State": "KY", "Zip": "40508", "Type": "Restaurant", "latitude": "38.0437267098", "longitude": "-84.5022939607" }, "geometry": { "type": "Point", "coordinates": [ -84.502293960700001, 38.043726709799998 ] } },
{ "type": "Feature", "properties": { "Name": "Bangkok House", "Add": "275 Avenue of Champions", "City": "Lexington", "State": "KY", "Zip": "40508", "Type": "Restaurant", "latitude": "38.0387860021", "longitude": "-84.5008353423" }, "geometry": { "type": "Point", "coordinates": [ -84.500835342299993, 38.03878600209999 ] } },
{ "type": "Feature", "properties": { "Name": "UK Art Museum", "Add": "405 Rose St", "City": "Lexington", "State": "KY", "Zip": "40508", "Type": "Conference Location", "latitude": "38.037969", "longitude": "-84.501364" }, "geometry": { "type": "Point", "coordinates": [ -84.501364, 38.037969 ] } },
{ "type": "Feature", "properties": { "Name": "Athenian Grill", "Add": "313 S Ashland Ave", "City": "Lexington", "State": "KY", "Zip": "40502", "Type": "Restaurant", "latitude": "38.031369", "longitude": "-84.490878" }, "geometry": { "type": "Point", "coordinates": [ -84.490878, 38.031369 ] } },
{ "type": "Feature", "properties": { "Name": "Jamba Juice", "Add": "535 S Upper St", "City": "Lexington", "State": "KY", "Zip": "40508", "Type": "Restaurant", "latitude": "38.042373", "longitude": "-84.505165" }, "geometry": { "type": "Point", "coordinates": [ -84.505165, 38.042373 ] } },
{ "type": "Feature", "properties": { "Name": "Smashburger", "Add": "535 S Upper St", "City": "Lexington", "State": "KY", "Zip": "40508", "Type": "Restaurant", "latitude": "38.042669", "longitude": "-84.505265" }, "geometry": { "type": "Point", "coordinates": [ -84.505265, 38.042669 ] } },
{ "type": "Feature", "properties": { "Name": "Firehouse Subs", "Add": "535 S Upper St", "City": "Lexington", "State": "KY", "Zip": "40508", "Type": "Restaurant", "latitude": "38.042772", "longitude": "-84.504669" }, "geometry": { "type": "Point", "coordinates": [ -84.504669, 38.042772 ] } },
{ "type": "Feature", "properties": { "Name": "Missy's Pies", "Add": "219 Woodland Ave", "City": "Lexington", "State": "KY", "Zip": "40502", "Type": "Restaurant", "latitude": "38.036486", "longitude": "-84.492937" }, "geometry": { "type": "Point", "coordinates": [ -84.492937, 38.036486 ] } },
{ "type": "Feature", "properties": { "Name": "Arcadium", "Add": "574 N Limestone St", "City": "Lexington", "State": "KY", "Zip": "40508", "Type": "Bar", "latitude": "38.053781", "longitude": "-84.486463" }, "geometry": { "type": "Point", "coordinates": [ -84.486463, 38.053781 ] } },
{ "type": "Feature", "properties": { "Name": "Common Grounds", "Add": "343 E High St", "City": "Lexington", "State": "KY", "Zip": "40507", "Type": "Coffee", "latitude": "38.040288", "longitude": "-84.493978" }, "geometry": { "type": "Point", "coordinates": [ -84.493978, 38.040288 ] } },
{ "type": "Feature", "properties": { "Name": "County Club", "Add": "555 S Jefferson St", "City": "Lexington", "State": "KY", "Zip": "40508", "Type": "Restaurant", "latitude": "38.059154", "longitude": "-84.493018" }, "geometry": { "type": "Point", "coordinates": [ -84.493018, 38.059154 ] } },
{ "type": "Feature", "properties": { "Name": "National Boulangerie", "Add": "264 Walton Ave", "City": "Lexington", "State": "KY", "Zip": "40502", "Type": "Coffee", "latitude": "38.040915", "longitude": "-84.480097" }, "geometry": { "type": "Point", "coordinates": [ -84.4801, 38.040915 ] } },
{ "type": "Feature", "properties": { "Name": "Wine and Market", "Add": "486 W 2nd St", "City": "Lexington", "State": "KY", "Zip": "40507", "Type": "Bar", "latitude": "38.053456", "longitude": "-84.500465" }, "geometry": { "type": "Point", "coordinates": [ -84.500465, 38.053456 ] } },
{ "type": "Feature", "properties": { "Name": "Limestone Blue", "Add": "133 N Limestone St", "City": "Lexington", "State": "KY", "Zip": "40507", "Type": "Restaurant", "latitude": "38.047136", "longitude": "-84.496129" }, "geometry": { "type": "Point", "coordinates": [ -84.49613, 38.047136 ] } },
{ "type": "Feature", "properties": { "Name": "Enoteca", "Add": "191 Jefferson St", "City": "Lexington", "State": "KY", "Zip": "40508", "Type": "Restaurant", "latitude": "38.053623", "longitude": "-84.500681" }, "geometry": { "type": "Point", "coordinates": [ -84.500681, 38.053623 ] } },
{ "type": "Feature", "properties": { "Name": "Saul Good", "Add": "123 N Broadway", "City": "Lexington", "State": "KY", "Zip": "40507", "Type": "Restaurant", "latitude": "38.049477", "longitude": "-84.499531" }, "geometry": { "type": "Point", "coordinates": [ -84.499531, 38.049477 ] } },
{ "type": "Feature", "properties": { "Name": "Bombay Grill", "Add": "102 W High St", "City": "Lexington", "State": "KY", "Zip": "40507", "Type": "Restaurant", "latitude": "38.045155", "longitude": "-84.498956" }, "geometry": { "type": "Point", "coordinates": [ -84.498956, 38.045155 ] } },
{ "type": "Feature", "properties": { "Name": "El Habanero Loko", "Add": "102 W Vine St", "City": "Lexington", "State": "KY", "Zip": "40507", "Type": "Restaurant", "latitude": "38.045713", "longitude": "-84.498329" }, "geometry": { "type": "Point", "coordinates": [ -84.498329, 38.045713 ] } },
{ "type": "Feature", "properties": { "Name": "Local Taco", "Add": "315 S Limestone St", "City": "Lexington", "State": "KY", "Zip": "40508", "Type": "Restaurant", "latitude": "38.043165", "longitude": "-84.501859" }, "geometry": { "type": "Point", "coordinates": [ -84.501859, 38.043165 ] } }
]
}
